{"type":"FeatureCollection","features":[
{"type":"Feature","geometry":{"type":"Point","coordinates":[-122.802533,45.525683]},"properties":{"name":"Cedar Mill Bible Church Park & Ride","address":"12208 NW Cornell Rd","city":"Portland","county":"Washington","zipcode":"97229","owner":"Shared","spaces":"16","status":"Existing"}},
{"type":"Feature","geometry":{"type":"Point","coordinates":[-122.574718,45.453302]},"properties":{"name":"SE Fuller Rd Park & Ride","address":"9608 SE Fuller Rd","city":"Portland","county":"Clackamas","zipcode":"97086","owner":"TriMet","spaces":"630","status":"Existing"}},
{"type":"Feature","geometry":{"type":"Point","coordinates":[-122.566455,45.495234]},"properties":{"name":"SE Powell Blvd Park & Ride","address":"3618 SE 92nd Ave","city":"Portland","county":"Multnomah","zipcode":"97266","owner":"TriMet","spaces":"80","status":"Existing"}},
{"type":"Feature","geometry":{"type":"Point","coordinates":[-122.579343,45.520953]},"properties":{"name":"The Columba Center","address":"8147 SE Pine St","city":"Portland","county":"Multnomah","zipcode":"97215","owner":"Shared","spaces":"12","status":"Existing"}},
{"type":"Feature","geometry":{"type":"Point","coordinates":[-122.640144,45.452052]},"properties":{"name":"Milwaukie Park & Ride","address":"9600 SE Main St","city":"Milwaukie","county":"Clackamas","zipcode":"97222","owner":"TriMet","spaces":"329","status":"Existing"}},
{"type":"Feature","geometry":{"type":"Point","coordinates":[-122.776337,45.310985]},"properties":{"name":"Wilsonville Park & Ride","address":"9699 SW Barber St","city":"Wilsonville","county":"Clackamas","zipcode":"97070","owner":"TriMet","spaces":"408","status":"Existing"}},
{"type":"Feature","geometry":{"type":"Point","coordinates":[-122.764564,45.383271]},"properties":{"name":"Tualatin South Park & Ride","address":"18955 SW Boones Ferry Rd","city":"Tualatin","county":"Washington","zipcode":"97062","owner":"TriMet","spaces":"147","status":"Existing"}},
{"type":"Feature","geometry":{"type":"Point","coordinates":[-122.769356,45.429639]},"properties":{"name":"Tigard TC Park & Ride","address":"8960 SW Commercial St","city":"Tigard","county":"Washington","zipcode":"97223","owner":"TriMet","spaces":"100","status":"Existing"}},
{"type":"Feature","geometry":{"type":"Point","coordinates":[-122.786907,45.457142]},"properties":{"name":"Hall/Nimbus Park & Ride","address":"8505 SW Cascade Ave","city":"Beaverton","county":"Washington","zipcode":"97008","owner":"TriMet","spaces":"50","status":"Existing"}},
{"type":"Feature","geometry":{"type":"Point","coordinates":[-122.806264,45.482988]},"properties":{"name":"Bethel Congregational Church Park & Ride","address":"5150 SW Watson Ave","city":"Beaverton","county":"Washington","zipcode":"97005","owner":"Shared","spaces":"50","status":"Existing"}},
{"type":"Feature","geometry":{"type":"Point","coordinates":[-122.831186,45.498689]},"properties":{"name":"Beaverton Creek Park & Ride","address":"SW 153rd Ave and Millikan Way","city":"Beaverton","county":"Washington","zipcode":"97003","owner":"TriMet","spaces":"417","status":"Existing"}},
{"type":"Feature","geometry":{"type":"Point","coordinates":[-122.566681,45.490985]},"properties":{"name":"SE Holgate Blvd Park & Ride","address":"9639 SE Holgate Blvd","city":"Portland","county":"Multnomah","zipcode":"97266","owner":"TriMet","spaces":"120","status":"Existing"}},
{"type":"Feature","geometry":{"type":"Point","coordinates":[-122.568511,45.436104]},"properties":{"name":"Clackamas Town Center Parking Garage","address":"9225 SE Sunnyside Rd","city":"Clackamas","county":"Clackamas","zipcode":"97015","owner":"TriMet","spaces":"750","status":"Existing"}},
{"type":"Feature","geometry":{"type":"Point","coordinates":[-122.564817,45.514083]},"properties":{"name":"SE Main St Park & Ride","address":"1119 SE 96th Ave","city":"Portland","county":"Multnomah","zipcode":"97216","owner":"TriMet","spaces":"420","status":"Existing"}},
{"type":"Feature","geometry":{"type":"Point","coordinates":[-122.977999,45.520344]},"properties":{"name":"Hillsboro Intermodal Transit Facility","address":"775 SE Baseline St","city":"Hillsboro","county":"Washington","zipcode":"97123","owner":"Shared","spaces":"85","status":"Existing"}},
{"type":"Feature","geometry":{"type":"Point","coordinates":[-122.782247,45.510599]},"properties":{"name":"Sunset Transit Center Park & Ride","address":"10470 SW Barnes Rd","city":"Beaverton","county":"Washington","zipcode":"97225","owner":"TriMet","spaces":"627","status":"Existing"}},
{"type":"Feature","geometry":{"type":"Point","coordinates":[-122.946483,45.527633]},"properties":{"name":"Fair Complex/Hillsboro Airport Park & Ride","address":"601 NE 34th Ave","city":"Hillsboro","county":"Washington","zipcode":"97124","owner":"TriMet","spaces":"396","status":"Existing"}},
{"type":"Feature","geometry":{"type":"Point","coordinates":[-122.917367,45.530788]},"properties":{"name":"Orenco Park & Ride","address":"967 NE Orenco Station Loop","city":"Hillsboro","county":"Washington","zipcode":"97124","owner":"TriMet","spaces":"125","status":"Existing"}},
{"type":"Feature","geometry":{"type":"Point","coordinates":[-122.851012,45.510657]},"properties":{"name":"Elmonica/SW 170th Ave Park & Ride","address":"1200 SW 170th Ave","city":"Beaverton","county":"Washington","zipcode":"97003","owner":"TriMet","spaces":"435","status":"Existing"}},
{"type":"Feature","geometry":{"type":"Point","coordinates":[-122.821615,45.495783]},"properties":{"name":"Millikan Way Park & Ride","address":"SW Millikan Way and 141st/Shannon Pl","city":"Beaverton","county":"Washington","zipcode":"97005","owner":"TriMet","spaces":"400","status":"Existing"}},
{"type":"Feature","geometry":{"type":"Point","coordinates":[-122.889097,45.522704]},"properties":{"name":"Quatama Park & Ride","address":"325 NW 205th Ave","city":"Hillsboro","county":"Washington","zipcode":"97006","owner":"TriMet","spaces":"310","status":"Existing"}},
{"type":"Feature","geometry":{"type":"Point","coordinates":[-122.840454,45.368977]},"properties":{"name":"Sherwood Regal Cinemas Park & Ride","address":"15995 SW Tualatin-Sherwood Rd","city":"Sherwood","county":"Washington","zipcode":"97140","owner":"Shared","spaces":"50","status":"Existing"}},
{"type":"Feature","geometry":{"type":"Point","coordinates":[-122.604446,45.337569]},"properties":{"name":"First Presbyterian Church Park & Ride","address":"1321 Linn Ave at Williams St","city":"Oregon City","county":"Clackamas","zipcode":"97045","owner":"Shared","spaces":"21","status":"Existing"}},
{"type":"Feature","geometry":{"type":"Point","coordinates":[-122.68589,45.605287]},"properties":{"name":"Expo Center Park & Ride","address":"2060 N Marine Dr at Expo Center","city":"Portland","county":"Multnomah","zipcode":"97217","owner":"Shared","spaces":"300","status":"Existing"}},
{"type":"Feature","geometry":{"type":"Point","coordinates":[-122.686129,45.596036]},"properties":{"name":"Delta Park/Vanport Park & Ride","address":"1940 N Victory Blvd","city":"Portland","county":"Multnomah","zipcode":"97217","owner":"TriMet","spaces":"304","status":"Existing"}},
{"type":"Feature","geometry":{"type":"Point","coordinates":[-122.640278,45.386878]},"properties":{"name":"Emmanuel United Presbyterian Church Park & Ride","address":"19200 S Willamette Dr","city":"West Linn","county":"Clackamas","zipcode":"97068","owner":"Shared","spaces":"80","status":"Existing"}},
{"type":"Feature","geometry":{"type":"Point","coordinates":[-122.990538,45.521057]},"properties":{"name":"Hillsboro Parking Garage","address":"110 SW Washington St","city":"Hillsboro","county":"Washington","zipcode":"97123","owner":"TriMet","spaces":"250","status":"Existing"}},
{"type":"Feature","geometry":{"type":"Point","coordinates":[-122.676925,45.419855]},"properties":{"name":"Christ Church Parish Park & Ride","address":"1060 Chandler Rd","city":"Lake Oswego","county":"Clackamas","zipcode":"97034","owner":"Shared","spaces":"30","status":"Existing"}},
{"type":"Feature","geometry":{"type":"Point","coordinates":[-122.792578,45.414813]},"properties":{"name":"Christ the King Lutheran Church Park & Ride","address":"11305 SW Bull Mountain Rd","city":"Tigard","county":"Washington","zipcode":"97224","owner":"Shared","spaces":"30","status":"Existing"}},
{"type":"Feature","geometry":{"type":"Point","coordinates":[-122.575295,45.321715]},"properties":{"name":"Clackamas Community College Park & Ride","address":"19600 S Molalla Ave","city":"Oregon City","county":"Clackamas","zipcode":"97045","owner":"Shared","spaces":"40","status":"Existing"}},
{"type":"Feature","geometry":{"type":"Point","coordinates":[-122.79622,45.508526]},"properties":{"name":"Cedar Hills United Church of Christ Park & Ride","address":"11695 SW Park Way","city":"Portland","county":"Washington","zipcode":"97225","owner":"Shared","spaces":"46","status":"Existing"}},
{"type":"Feature","geometry":{"type":"Point","coordinates":[-122.871392,45.518645]},"properties":{"name":"Willow Creek/SW 185th Ave TC Park & Ride","address":"375 SW 185th Ave","city":"Hillsboro","county":"Washington","zipcode":"97006","owner":"TriMet","spaces":"600","status":"Existing"}},
{"type":"Feature","geometry":{"type":"Point","coordinates":[-122.592347,45.48977]},"properties":{"name":"Kern Park Christian Church Park & Ride","address":"6828 SE Holgate Blvd","city":"Portland","county":"Multnomah","zipcode":"97206","owner":"Shared","spaces":"24","status":"Existing"}},
{"type":"Feature","geometry":{"type":"Point","coordinates":[-122.436309,45.505194]},"properties":{"name":"Gresham City Hall Park & Ride","address":"1297 NW Eastman Pkwy","city":"Gresham","county":"Multnomah","zipcode":"97030","owner":"Shared","spaces":"417","status":"Existing"}},
{"type":"Feature","geometry":{"type":"Point","coordinates":[-122.418418,45.502481]},"properties":{"name":"Cleveland Ave Park & Ride","address":"1200 NE 8th St","city":"Gresham","county":"Multnomah","zipcode":"97030","owner":"TriMet","spaces":"392","status":"Existing"}},
{"type":"Feature","geometry":{"type":"Point","coordinates":[-122.770961,45.370821]},"properties":{"name":"Boones Ferry Community Church Park & Ride","address":"20500 SW Boones Ferry Rd","city":"Tualatin","county":"Washington","zipcode":"97062","owner":"Shared","spaces":"20","status":"Existing"}},
{"type":"Feature","geometry":{"type":"Point","coordinates":[-122.717344,45.454237]},"properties":{"name":"Barbur Blvd Park & Ride","address":"9712 SW Barbur Blvd","city":"Portland","county":"Multnomah","zipcode":"97219","owner":"TriMet","spaces":"368","status":"Existing"}},
{"type":"Feature","geometry":{"type":"Point","coordinates":[-122.474586,45.521113]},"properties":{"name":"E 181st Ave Park & Ride","address":"18324 E Burnside St","city":"Gresham","county":"Multnomah","zipcode":"97233","owner":"TriMet","spaces":"247","status":"Existing"}},
{"type":"Feature","geometry":{"type":"Point","coordinates":[-122.68106,45.407157]},"properties":{"name":"Lake Oswego United Methodist Church Park & Ride","address":"1855 South Shore Blvd","city":"Lake Oswego","county":"Clackamas","zipcode":"97034","owner":"Shared","spaces":"34","status":"Existing"}},
{"type":"Feature","geometry":{"type":"Point","coordinates":[-122.536556,45.521811]},"properties":{"name":"E 122nd/Menlo Park Park & Ride","address":"12202 E Burnside St","city":"Portland","county":"Multnomah","zipcode":"97233","owner":"TriMet","spaces":"612","status":"Existing"}},
{"type":"Feature","geometry":{"type":"Point","coordinates":[-122.635075,45.428383]},"properties":{"name":"Milwaukie Elks Lodge Park & Ride","address":"13121 SE McLoughlin Blvd","city":"Milwaukie","county":"Clackamas","zipcode":"97222","owner":"Shared","spaces":"90","status":"Existing"}},
{"type":"Feature","geometry":{"type":"Point","coordinates":[-122.56365,45.559057]},"properties":{"name":"Parkrose/Sumner TC Park & Ride","address":"9525 NE Sandy Blvd","city":"Portland","county":"Multnomah","zipcode":"97220","owner":"TriMet","spaces":"193","status":"Existing"}},
{"type":"Feature","geometry":{"type":"Point","coordinates":[-122.783875,45.455284]},"properties":{"name":"Progress Park & Ride","address":"SW Scholls Ferry Rd. & Hwy 217","city":"Tigard","county":"Washington","zipcode":"97008","owner":"TriMet","spaces":"122","status":"Existing"}},
{"type":"Feature","geometry":{"type":"Point","coordinates":[-122.454532,45.53298]},"properties":{"name":"Reynolds School District Park & Ride","address":"1204 NE 201st Ave","city":"Troutdale","county":"Multnomah","zipcode":"97024","owner":"Shared","spaces":"35","status":"Existing"}},
{"type":"Feature","geometry":{"type":"Point","coordinates":[-122.710994,45.488538]},"properties":{"name":"St. Andrews United Presbyterian Church","address":"3228 SW Sunset Blvd","city":"Portland","county":"Multnomah","zipcode":"97239","owner":"Shared","spaces":"140","status":"Existing"}},
{"type":"Feature","geometry":{"type":"Point","coordinates":[-122.826913,45.474085]},"properties":{"name":"Seventh-Day Adventist Church of Beaverton","address":"14645 SW Davis Rd","city":"Beaverton","county":"Washington","zipcode":"97007","owner":"Shared","spaces":"113","status":"Existing"}},
{"type":"Feature","geometry":{"type":"Point","coordinates":[-122.842043,45.355165]},"properties":{"name":"Sherwood Park & Ride","address":"SW Main & Railroad","city":"Sherwood","county":"Washington","zipcode":"97140","owner":"Shared","spaces":"30","status":"Existing"}},
{"type":"Feature","geometry":{"type":"Point","coordinates":[-122.803458,45.468986]},"properties":{"name":"Southminster Presbyterian Church","address":"12250 SW Denney Rd","city":"Beaverton","county":"Washington","zipcode":"97008","owner":"Shared","spaces":"20","status":"Existing"}},
{"type":"Feature","geometry":{"type":"Point","coordinates":[-122.748487,45.395592]},"properties":{"name":"Tualatin Park & Ride","address":"SW 72nd & Bridgeport Rd","city":"Tualatin","county":"Washington","zipcode":"97224","owner":"TriMet","spaces":"466","status":"Existing"}},
{"type":"Feature","geometry":{"type":"Point","coordinates":[-122.760408,45.48941]},"properties":{"name":"Valley Community United Presbyterian Church","address":"8060 SW Brentwood St","city":"Portland","county":"Washington","zipcode":"97225","owner":"Shared","spaces":"63","status":"Existing"}},
{"type":"Feature","geometry":{"type":"Point","coordinates":[-122.563051,45.531677]},"properties":{"name":"Gateway/NE 99th Ave TC Park & Ride","address":"1250 NE 99th Ave","city":"Portland","county":"Multnomah","zipcode":"97220","owner":"TriMet","spaces":"695","status":"Existing"}},
{"type":"Feature","geometry":{"type":"Point","coordinates":[-122.711975,45.577362]},"properties":{"name":"University Park Baptist Church","address":"4340 N Lombard St","city":"Portland","county":"Multnomah","zipcode":"97203","owner":"Shared","spaces":"22","status":"Existing"}},
{"type":"Feature","geometry":{"type":"Point","coordinates":[-122.647902,45.480718]},"properties":{"name":"Tenth Church of Christ Scientist Park & Ride","address":"5736 SE 17th Ave","city":"Portland","county":"Multnomah","zipcode":"97202","owner":"Shared","spaces":"28","status":"Existing"}},
{"type":"Feature","geometry":{"type":"Point","coordinates":[-122.571676,45.527155]},"properties":{"name":"Central Bible Church Park & Ride","address":"8815 NE Glisan St","city":"Portland","county":"Multnomah","zipcode":"97220","owner":"Shared","spaces":"20","status":"Existing"}},
{"type":"Feature","geometry":{"type":"Point","coordinates":[-122.752827,45.437977]},"properties":{"name":"Tigard Park & Ride","address":"SW 74th Ave and Pacific Hwy","city":"Tigard","county":"Washington","zipcode":"97223","owner":"TriMet","spaces":"220","status":"Existing"}},
{"type":"Feature","geometry":{"type":"Point","coordinates":[-122.712239,45.418855]},"properties":{"name":"Hope Church Park & Ride","address":"14790 SW Boones Ferry Rd","city":"Lake Oswego","county":"Clackamas","zipcode":"97035","owner":"Shared","spaces":"12","status":"Existing"}},
{"type":"Feature","geometry":{"type":"Point","coordinates":[-122.637516,45.439587]},"properties":{"name":"Milwaukie Presbyterian Church Park & Ride","address":"2416 SE Lake Rd","city":"Milwaukie","county":"Clackamas","zipcode":"97222","owner":"Shared","spaces":"30","status":"Existing"}},
{"type":"Feature","geometry":{"type":"Point","coordinates":[-122.42551,45.503296]},"properties":{"name":"Gresham Parking Garage","address":"523-575 NE 8th St","city":"Gresham","county":"Multnomah","zipcode":"97030","owner":"TriMet","spaces":"540","status":"Existing"}},
{"type":"Feature","geometry":{"type":"Point","coordinates":[-122.332382,45.284863]},"properties":{"name":"City of Estacada Park & Ride","address":"590 SE Short St","city":"Estacada","county":"Clackamas","zipcode":"97023","owner":"Shared","spaces":"20","status":"Existing"}},
{"type":"Feature","geometry":{"type":"Point","coordinates":[-122.759757,45.37604]},"properties":{"name":"Mohawk Park & Ride","address":"SW Martinazzi Ave and Mohawk St","city":"Tualatin","county":"Washington","zipcode":"97062","owner":"TriMet","spaces":"232","status":"Existing"}},
{"type":"Feature","geometry":{"type":"Point","coordinates":[-122.33853,45.297465]},"properties":{"name":"Estacada Public Library","address":"825 NW Wade St","city":"Estacada","county":"Clackamas","zipcode":"97023","owner":"Shared","spaces":"50","status":"Existing"}},
{"type":"Feature","geometry":{"type":"Point","coordinates":[-122.637613,45.46232]},"properties":{"name":"SE Tacoma/Johnson Creek Park & Ride","address":"8300 SE McLoughlin","city":"Portland","county":"Multnomah","zipcode":"97202","owner":"TriMet","spaces":"318","status":"Existing"}},
{"type":"Feature","geometry":{"type":"Point","coordinates":[-122.635339,45.429588]},"properties":{"name":"SE Park Ave Park & Ride","address":"2750 SE Park Ave","city":"Milwaukie","county":"Clackamas","zipcode":"97222","owner":"TriMet","spaces":"402","status":"Existing"}}
]}
