{"type":"FeatureCollection","features":[
{"type":"Feature","geometry":{"type":"Point","coordinates":[-122.568328,45.43569]},"properties":{"name":"Clackamas Town Center Transit Center","address":"9225 SE Sunnyside Rd","city":"Clackamas","county":"Clackamas","zipcode":"97015","status":"Existing"}},
{"type":"Feature","geometry":{"type":"Point","coordinates":[-122.801139,45.491084]},"properties":{"name":"Beaverton Transit Center","address":"4050 SW Lombard Ave","city":"Beaverton","county":"Washington","zipcode":"97005","status":"Existing"}},
{"type":"Feature","geometry":{"type":"Point","coordinates":[-122.778794,45.452458]},"properties":{"name":"Washington Square Transit Center","address":"9585 SW Washington Square Rd","city":"Tigard","county":"Washington","zipcode":"97223","status":"Existing"}},
{"type":"Feature","geometry":{"type":"Point","coordinates":[-122.769366,45.430265]},"properties":{"name":"Tigard Transit Center","address":"8960 SW Commercial St","city":"Tigard","county":"Washington","zipcode":"97223","status":"Existing"}},
{"type":"Feature","geometry":{"type":"Point","coordinates":[-122.667932,45.420379]},"properties":{"name":"Lake Oswego Transit Center","address":"4th St and A Ave","city":"Lake Oswego","county":"Clackamas","zipcode":"97034","status":"Existing"}},
{"type":"Feature","geometry":{"type":"Point","coordinates":[-122.717677,45.454419]},"properties":{"name":"Barbur Blvd Transit Center","address":"9750 SW Barbur Blvd","city":"Portland","county":"Multnomah","zipcode":"97219","status":"Existing"}},
{"type":"Feature","geometry":{"type":"Point","coordinates":[-122.563461,45.530389]},"properties":{"name":"Gateway/NE 99th Ave Transit Center","address":"9900 NE Multnomah","city":"Portland","county":"Multnomah","zipcode":"97220","status":"Existing"}},
{"type":"Feature","geometry":{"type":"Point","coordinates":[-122.426842,45.502834]},"properties":{"name":"Gresham Central Transit Center","address":"350 NE 8th","city":"Gresham","county":"Multnomah","zipcode":"97030","status":"Existing"}},
{"type":"Feature","geometry":{"type":"Point","coordinates":[-122.62064,45.53328]},"properties":{"name":"Hollywood/NE 42nd Ave Transit Center","address":"1410 NE 42nd Ave","city":"Portland","county":"Multnomah","zipcode":"97232","status":"Existing"}},
{"type":"Feature","geometry":{"type":"Point","coordinates":[-122.781188,45.510193]},"properties":{"name":"Sunset Transit Center","address":"10470 SW Barnes Rd","city":"Portland","county":"Washington","zipcode":"97225","status":"Existing"}},
{"type":"Feature","geometry":{"type":"Point","coordinates":[-122.985263,45.521455]},"properties":{"name":"Hillsboro Central/SE 3rd Ave Transit Center","address":"333 SE Washington","city":"Hillsboro","county":"Washington","zipcode":"97123","status":"Existing"}},
{"type":"Feature","geometry":{"type":"Point","coordinates":[-122.870158,45.517413]},"properties":{"name":"Willow Creek/SW 185th Ave Transit Center","address":"395 SW 185th Ave","city":"Beaverton","county":"Washington","zipcode":"97006","status":"Existing"}},
{"type":"Feature","geometry":{"type":"Point","coordinates":[-122.666118,45.530209]},"properties":{"name":"Rose Quarter Transit Center","address":"47 NE Holladay St","city":"Portland","county":"Multnomah","zipcode":"97232","status":"Existing"}},
{"type":"Feature","geometry":{"type":"Point","coordinates":[-122.604318,45.360139]},"properties":{"name":"Oregon City Transit Center","address":"1035 SW Main St","city":"Oregon City","county":"Clackamas","zipcode":"97045","status":"Existing"}},
{"type":"Feature","geometry":{"type":"Point","coordinates":[-122.564402,45.55901]},"properties":{"name":"Parkrose/Sumner Transit Center","address":"9481 NE Sandy Blvd","city":"Portland","county":"Multnomah","zipcode":"97220","status":"Existing"}},
{"type":"Feature","geometry":{"type":"Point","coordinates":[-122.68209,45.577117]},"properties":{"name":"N Lombard Transit Center","address":"N Interstate Ave & Lombard St","city":"Portland","county":"Multnomah","zipcode":"97217","status":"Existing"}}
]}
